City_ID,City,Country,Date,Lat,Lng,Max Temp,Humidity,Cloudiness,Wind Speed,Current Description,Rain inches (last 3 hrs),Snow inches (last 3 hrs)
0,mar del plata,AR,2/25/2022 4:16,-38.0023,-57.5575,65.08,83,0,7,clear sky,0,0
1,mataura,NZ,2/25/2022 4:16,-46.1927,168.8643,72.77,46,1,4.65,clear sky,0,0
2,rikitea,PF,2/25/2022 4:11,-23.1203,-134.9692,79.86,67,31,6.51,scattered clouds,0,0
3,ushuaia,AR,2/25/2022 4:16,-54.8,-68.3,49.66,93,75,3.44,broken clouds,0,0
4,batagay-alyta,RU,2/25/2022 4:16,67.8006,130.4114,4.78,84,100,11.95,overcast clouds,0,0
5,santa maria,BR,2/25/2022 4:16,-29.6842,-53.8069,75.43,62,92,8.48,overcast clouds,0,0
6,gafanha da encarnacao,PT,2/25/2022 4:16,40.6181,-8.733,56.77,51,100,7.18,overcast clouds,0,0
7,itoman,JP,2/25/2022 4:16,26.1247,127.6694,64.78,50,75,13.8,broken clouds,0,0
8,busselton,AU,2/25/2022 4:16,-33.65,115.3333,85.05,44,76,7.56,broken clouds,0,0
9,nouadhibou,MR,2/25/2022 4:16,20.931,-17.0347,62.58,88,1,17.27,clear sky,0,0
10,butaritari,KI,2/25/2022 4:16,3.0707,172.7902,81.99,78,62,20.24,light rain,0,0
11,atuona,PF,2/25/2022 4:14,-9.8,-139.0333,78.58,80,27,19.15,scattered clouds,0,0
12,chapada dos guimaraes,BR,2/25/2022 4:16,-15.4606,-55.7497,71.26,94,100,4.47,overcast clouds,0,0
13,arraial do cabo,BR,2/25/2022 4:16,-22.9661,-42.0278,75.79,87,0,5.37,clear sky,0,0
14,jaru,BR,2/25/2022 4:16,-10.4389,-62.4664,73.99,96,100,2.93,overcast clouds,0,0
15,ponta do sol,PT,2/25/2022 4:16,32.6667,-17.1,61.43,70,64,8.12,broken clouds,0,0
16,atambua,ID,2/25/2022 4:16,-9.1061,124.8925,75.96,88,100,9.28,overcast clouds,0,0
17,tuatapere,NZ,2/25/2022 4:16,-46.1333,167.6833,63.82,66,19,8.95,few clouds,0,0
18,norden,DE,2/25/2022 4:16,53.6,7.2,39.96,92,92,3,overcast clouds,0,0
19,upernavik,GL,2/25/2022 4:16,72.7868,-56.1549,-27.92,99,97,16.15,overcast clouds,0,0
20,leningradskiy,RU,2/25/2022 4:16,69.3833,178.4167,-2.72,95,100,4.16,overcast clouds,0,0
21,pemberton,CA,2/25/2022 4:16,50.3164,-122.8027,26.46,93,10,1.43,clear sky,0,0
22,reconquista,AR,2/25/2022 4:16,-29.15,-59.65,72.63,96,36,5.77,scattered clouds,0,0
23,san jeronimo,PE,2/25/2022 4:16,-11.9472,-75.2829,51.53,84,100,0.45,overcast clouds,0,0
24,saint-philippe,RE,2/25/2022 4:16,-21.3585,55.7679,81.99,81,97,3.38,overcast clouds,0,0
25,hermanus,ZA,2/25/2022 4:16,-34.4187,19.2345,69.8,88,79,10.42,broken clouds,0,0
26,jamestown,US,2/25/2022 4:15,42.097,-79.2353,31.32,55,100,10.36,light snow,0,0
27,bubaque,GW,2/25/2022 4:16,11.2833,-15.8333,74.61,74,3,14.58,clear sky,0,0
28,carroll,US,2/25/2022 4:16,39.5501,-77.0164,32.02,84,100,1.99,snow,0,0
29,vaini,TO,2/25/2022 4:16,-21.2,-175.2,86.16,74,75,8.05,broken clouds,0,0
30,punta arenas,CL,2/25/2022 4:16,-53.15,-70.9167,48.31,81,0,9.22,clear sky,0,0
31,thompson,CA,2/25/2022 4:16,55.7435,-97.8558,-2.04,60,20,8.05,few clouds,0,0
32,sambava,MG,2/25/2022 4:16,-14.2667,50.1667,77.18,88,56,4.27,broken clouds,0,0
33,castro,BR,2/25/2022 4:16,-24.7911,-50.0119,64.58,96,13,4.14,few clouds,0,0
34,saldanha,ZA,2/25/2022 4:16,-33.0117,17.9442,64.42,95,8,7.78,clear sky,0,0
35,calabozo,VE,2/25/2022 4:16,8.9242,-67.4293,79.79,51,96,8.81,overcast clouds,0,0
36,talcahuano,CL,2/25/2022 4:16,-36.7167,-73.1167,58.68,100,100,0,fog,0,0
37,ribeira grande,PT,2/25/2022 4:16,38.5167,-28.7,58.64,65,19,10.04,few clouds,0,0
38,peleduy,RU,2/25/2022 4:16,59.6289,112.7406,11.55,86,99,6.73,overcast clouds,0,0
39,avarua,CK,2/25/2022 4:16,-21.2078,-159.775,82.45,83,73,12.66,broken clouds,0,0
40,ilulissat,GL,2/25/2022 4:16,69.2167,-51.1,-0.38,78,100,1.14,light shower snow,0,0
41,rostovka,RU,2/25/2022 4:16,55.3842,71.8891,23.02,96,93,8.93,overcast clouds,0,0
42,chumphon,TH,2/25/2022 4:16,10.3333,98.8333,80.71,59,39,10.94,scattered clouds,0,0
43,constitucion,CL,2/25/2022 4:16,-35.3333,-72.4167,56.44,90,0,6.26,clear sky,0,0
44,hobart,AU,2/25/2022 4:14,-42.8794,147.3294,70.02,55,75,14.97,broken clouds,0,0
45,mahebourg,MU,2/25/2022 4:16,-20.4081,57.7,82.26,94,40,4.61,scattered clouds,0,0
46,tateyama,JP,2/25/2022 4:16,34.9833,139.8667,51.82,48,15,5.03,few clouds,0,0
47,tiksi,RU,2/25/2022 4:16,71.6872,128.8694,-6.61,99,100,7.65,overcast clouds,0,0
48,salalah,OM,2/25/2022 4:16,17.0151,54.0924,69.89,68,0,3.44,clear sky,0,0
49,katsuura,JP,2/25/2022 4:16,35.1333,140.3,51.91,44,5,5.95,clear sky,0,0
50,longyearbyen,SJ,2/25/2022 4:16,78.2186,15.6401,-13.16,70,20,3.44,fog,0,0
51,masyaf,SY,2/25/2022 4:16,35.0653,36.3406,47.19,91,72,14.56,broken clouds,0,0
52,albany,US,2/25/2022 4:14,42.6001,-73.9662,27.09,59,88,2.93,overcast clouds,0,0
53,manzhouli,CN,2/25/2022 4:16,49.6,117.4333,17.17,84,46,23.38,scattered clouds,0,0
54,barstow,US,2/25/2022 4:16,34.8986,-117.0228,43.39,20,0,1.86,clear sky,0,0
55,umm kaddadah,SD,2/25/2022 4:16,13.6017,26.6876,60.94,18,7,16.49,clear sky,0,0
56,khatanga,RU,2/25/2022 4:16,71.9667,102.5,-16.76,99,49,3.36,scattered clouds,0,0
57,humaita,BR,2/25/2022 4:14,-7.5061,-63.0208,73.35,94,69,1.43,broken clouds,0,0
58,guerrero negro,MX,2/25/2022 4:16,27.9769,-114.0611,59.58,45,60,7.25,broken clouds,0,0
59,bredasdorp,ZA,2/25/2022 4:16,-34.5322,20.0403,69.28,85,100,5.88,overcast clouds,0,0
60,georgetown,MY,2/25/2022 4:16,5.4112,100.3354,84.13,80,40,11.5,light rain,0,0
61,kavieng,PG,2/25/2022 4:16,-2.5744,150.7967,82.78,74,94,5.7,light rain,0,0
62,biak,ID,2/25/2022 4:16,-0.9131,122.8766,86.18,55,88,8.9,overcast clouds,0,0
63,kieta,PG,2/25/2022 4:16,-6.2167,155.6333,83.43,75,52,5.17,light rain,0,0
64,hithadhoo,MV,2/25/2022 4:16,-0.6,73.0833,82.96,67,2,7.94,clear sky,0,0
65,timmins,CA,2/25/2022 4:12,48.4669,-81.3331,-14.03,100,56,1.05,broken clouds,0,0
66,la ronge,CA,2/25/2022 4:16,55.1001,-105.2842,-0.15,71,75,4.61,broken clouds,0,0
67,eyrarbakki,IS,2/25/2022 4:16,63.863,-21.1481,30.25,96,100,17.78,light snow,0,0
68,xuddur,SO,2/25/2022 4:16,4.1213,43.8894,71.11,81,100,15.66,overcast clouds,0,0
69,tasiilaq,GL,2/25/2022 4:16,65.6145,-37.6368,21.36,69,100,34.31,overcast clouds,0,0
70,pisco,PE,2/25/2022 4:16,-13.7,-76.2167,68.02,88,0,5.75,clear sky,0,0
71,hamilton,US,2/25/2022 4:16,39.1834,-84.5333,37.08,96,100,4.61,mist,0,0
72,hualmay,PE,2/25/2022 4:16,-11.0964,-77.6139,72.09,81,98,6.96,overcast clouds,0,0
73,lakshmipur,BD,2/25/2022 4:16,22.95,90.8333,78.17,53,8,5.32,clear sky,0,0
74,charters towers,AU,2/25/2022 4:16,-20.1,146.2667,96.19,26,18,6.24,few clouds,0,0
75,hambantota,LK,2/25/2022 4:16,6.1241,81.1185,85.15,57,8,15.1,clear sky,0,0
76,bac lieu,VN,2/25/2022 4:16,9.285,105.7244,84.69,58,99,23.62,overcast clouds,0,0
77,rudbar,AF,2/25/2022 4:16,30.15,62.6,61,34,0,2.95,clear sky,0,0
78,harper,LR,2/25/2022 4:16,4.375,-7.7169,78.51,88,92,7,overcast clouds,0,0
79,kabare,CD,2/25/2022 4:16,-2.4683,28.8242,58.71,94,98,0.85,overcast clouds,0,0
80,sao filipe,CV,2/25/2022 4:16,14.8961,-24.4956,69.84,75,8,8.61,clear sky,0,0
81,huilong,CN,2/25/2022 4:16,31.8111,121.655,57.04,49,0,10.29,clear sky,0,0
82,lagoa,PT,2/25/2022 4:16,39.05,-27.9833,57.18,67,22,5.88,few clouds,0,0
83,klishkivtsi,UA,2/25/2022 4:16,48.4316,26.2623,29.07,83,11,5.26,few clouds,0,0
84,yerbogachen,RU,2/25/2022 4:16,61.2767,108.0108,4.62,77,53,2.66,broken clouds,0,0
85,lebu,CL,2/25/2022 4:16,-37.6167,-73.65,56.37,94,7,3.29,clear sky,0,0
86,yulara,AU,2/25/2022 4:16,-25.2406,130.9889,94.84,17,0,10.36,clear sky,0,0
87,port elizabeth,ZA,2/25/2022 4:16,-33.918,25.5701,74.1,88,0,13.8,clear sky,0,0
88,barrow,US,2/25/2022 4:16,71.2906,-156.7887,-7.58,71,0,19.57,haze,0,0
89,victoria,HK,2/25/2022 4:16,22.2855,114.1577,64.94,72,36,8.01,scattered clouds,0,0
90,te anau,NZ,2/25/2022 4:16,-45.4167,167.7167,72.81,31,1,3,clear sky,0,0
91,komsomolskiy,UZ,2/25/2022 4:16,40.4272,71.7189,48.92,53,75,2.3,broken clouds,0,0
92,makakilo city,US,2/25/2022 4:16,21.3469,-158.0858,77.32,59,0,11.5,clear sky,0,0
93,sena madureira,BR,2/25/2022 4:16,-9.0656,-68.6569,72.91,97,100,2.57,overcast clouds,0,0
94,qingdao,CN,2/25/2022 4:15,36.0986,120.3719,55,35,0,11.18,clear sky,0,0
95,topeka,US,2/25/2022 4:14,39.0483,-95.678,14.9,80,0,11.5,clear sky,0,0
96,shimoda,JP,2/25/2022 4:16,34.6667,138.95,50.36,54,69,3.09,broken clouds,0,0
97,maceio,BR,2/25/2022 4:16,-9.6658,-35.7353,76.44,83,20,4.61,few clouds,0,0
98,puerto del rosario,ES,2/25/2022 4:16,28.5004,-13.8627,62.28,82,7,9.22,clear sky,0,0
99,cape town,ZA,2/25/2022 4:16,-33.9258,18.4232,68.11,86,0,12.66,clear sky,0,0
100,hilo,US,2/25/2022 4:16,19.7297,-155.09,77.52,72,40,4.61,scattered clouds,0,0
101,kyzyl-suu,KG,2/25/2022 4:16,42.3414,78.0056,32.77,70,100,1.12,overcast clouds,0,0
102,namtsy,RU,2/25/2022 4:16,62.7161,129.6658,-0.29,88,100,7.9,overcast clouds,0,0
103,bambous virieux,MU,2/25/2022 4:16,-20.3428,57.7575,82.22,94,40,4.61,scattered clouds,0,0
104,miraflores,MX,2/25/2022 4:16,19.2167,-98.8083,67.03,35,0,2.93,clear sky,0,0
105,madang,PG,2/25/2022 4:16,-5.2246,145.7966,85.08,74,88,9.24,overcast clouds,0,0
106,pevek,RU,2/25/2022 4:12,69.7008,170.3133,-6.14,92,100,0.96,overcast clouds,0,0
107,severo-yeniseyskiy,RU,2/25/2022 4:16,60.3725,93.0408,20.35,92,100,7.61,light snow,0,0
108,koslan,RU,2/25/2022 4:16,63.4564,48.8989,22.1,91,100,11.61,overcast clouds,0,0
109,palmer,US,2/25/2022 4:16,42.1584,-72.3287,29.03,48,100,0,overcast clouds,0,0
110,kruisfontein,ZA,2/25/2022 4:16,-34.0033,24.7314,71.89,97,60,4.74,broken clouds,0,0
111,pskov,RU,2/25/2022 4:16,57.8136,28.3496,31.91,80,0,11.18,clear sky,0,0
112,mrakovo,RU,2/25/2022 4:16,52.7161,56.6244,26.44,95,99,2.26,overcast clouds,0,0
113,zhezkazgan,KZ,2/25/2022 4:16,47.8043,67.7144,17.58,93,20,6.71,few clouds,0,0
114,meulaboh,ID,2/25/2022 4:16,4.1363,96.1285,84.7,63,58,0.81,broken clouds,0,0
115,fortuna,US,2/25/2022 4:17,40.5982,-124.1573,40.48,86,0,0,clear sky,0,0
116,honningsvag,NO,2/25/2022 4:17,70.9821,25.9704,27.93,71,100,23.87,overcast clouds,0,0
117,port macquarie,AU,2/25/2022 4:17,-31.4333,152.9167,78.89,86,98,11.56,overcast clouds,0,0
118,saint-augustin,CA,2/25/2022 4:17,51.226,-58.6502,-9.17,80,28,10.51,scattered clouds,0,0
119,yenagoa,NG,2/25/2022 4:17,4.9247,6.2642,78.8,89,16,3.51,few clouds,0,0
120,saint-pierre,RE,2/25/2022 4:17,-21.3393,55.4781,82.08,74,0,4.61,clear sky,0,0
121,bengkulu,ID,2/25/2022 4:17,-3.8004,102.2655,84.24,64,92,5.7,overcast clouds,0,0
122,uyuni,BO,2/25/2022 4:17,-20.4597,-66.825,53.11,65,100,12.77,overcast clouds,0,0
123,izumo,JP,2/25/2022 4:17,35.3667,132.7667,51.75,49,75,16.11,broken clouds,0,0
124,acari,PE,2/25/2022 4:17,-15.4311,-74.6158,73.45,83,97,4.27,overcast clouds,0,0
125,coahuayana,MX,2/25/2022 4:17,18.7333,-103.6833,70.9,92,5,2.86,clear sky,0,0
126,praia,CV,2/25/2022 4:15,14.9215,-23.5087,68.34,79,9,14.99,clear sky,0,0
127,srednekolymsk,RU,2/25/2022 4:17,67.45,153.6833,-8.7,89,100,6.08,overcast clouds,0,0
128,tuktoyaktuk,CA,2/25/2022 4:17,69.4541,-133.0374,-18.4,76,20,9.22,few clouds,0,0
129,middletown,US,2/25/2022 4:16,39.5151,-84.3983,36.52,95,100,8.05,moderate rain,0,0
130,kapaa,US,2/25/2022 4:17,22.0752,-159.319,78.78,72,20,12.66,few clouds,0,0
131,keti bandar,PK,2/25/2022 4:17,24.1447,67.4497,75.4,52,0,9.4,clear sky,0,0
132,bathsheba,BB,2/25/2022 4:17,13.2167,-59.5167,77.61,83,40,9.22,scattered clouds,0,0
133,richards bay,ZA,2/25/2022 4:17,-28.783,32.0377,69.84,87,22,6.44,few clouds,0,0
134,zaysan,KZ,2/25/2022 4:17,47.4667,84.8667,16.81,85,77,2.46,broken clouds,0,0
135,los algarrobos,PA,2/25/2022 4:17,8.5,-82.4333,69.76,71,23,6.08,few clouds,0,0
136,igarka,RU,2/25/2022 4:17,67.4667,86.5833,11.17,95,100,10.4,light snow,0,0
137,leku,ET,2/25/2022 4:17,6.8667,38.45,58.89,73,96,3.51,overcast clouds,0,0
138,dikson,RU,2/25/2022 4:17,73.5069,80.5464,2.71,94,100,10.63,overcast clouds,0,0
139,sohag,EG,2/25/2022 4:17,26.557,31.6948,51.4,76,0,4.94,clear sky,0,0
140,huanuni,BO,2/25/2022 4:17,-18.2667,-66.85,43.54,79,100,11.03,overcast clouds,0,0
141,bend,US,2/25/2022 4:12,44.0582,-121.3153,26.58,86,100,3.44,overcast clouds,0,0
142,east london,ZA,2/25/2022 4:17,-33.0153,27.9116,72.54,88,0,10.36,clear sky,0,0
143,hervey bay,AU,2/25/2022 4:17,-25.2986,152.8535,73.51,85,93,12.53,moderate rain,0,0
144,chuy,UY,2/25/2022 4:17,-33.6971,-53.4616,70.84,87,100,7.2,overcast clouds,0,0
145,boguchany,RU,2/25/2022 4:17,58.3814,97.4531,20.12,94,100,7.72,light snow,0,0
146,magadan,RU,2/25/2022 4:17,59.5667,150.8,13.53,88,100,7.18,light snow,0,0
147,aranos,NA,2/25/2022 4:17,-24.1333,19.1167,71.35,20,17,9.42,few clouds,0,0
148,chokurdakh,RU,2/25/2022 4:17,70.6333,147.9167,-3.78,91,100,13.91,overcast clouds,0,0
149,pitelino,RU,2/25/2022 4:17,54.5777,41.8145,18.48,96,49,6.11,scattered clouds,0,0
150,valparaiso,CL,2/25/2022 4:17,-33.0393,-71.6273,64.04,63,0,1.14,clear sky,0,0
151,tommot,RU,2/25/2022 4:17,58.9564,126.2925,20.07,88,100,10.96,light snow,0,0
152,exeter,GB,2/25/2022 4:17,50.7236,-3.5275,44.51,84,8,14.2,clear sky,0,0
153,ragonvalia,CO,2/25/2022 4:17,7.5775,-72.4757,61.43,95,97,1.36,overcast clouds,0,0
154,padang,ID,2/25/2022 4:17,-0.9492,100.3543,86.05,63,87,4.72,moderate rain,0,0
155,vila velha,BR,2/25/2022 4:17,-20.3297,-40.2925,76.95,88,20,4.61,few clouds,0,0
156,nichinan,JP,2/25/2022 4:17,31.6,131.3667,54.55,38,0,0.29,clear sky,0,0
157,saint george,US,2/25/2022 4:16,37.1041,-113.5841,38.62,56,0,4.61,clear sky,0,0
158,amapa,BR,2/25/2022 4:17,1,-52,70.81,99,45,2.21,scattered clouds,0,0
159,shchebetovka,UA,2/25/2022 4:17,44.9333,35.15,40.3,95,100,15.46,overcast clouds,0,0
160,youghal,IE,2/25/2022 4:17,51.95,-7.8506,38.43,98,44,9.69,scattered clouds,0,0
161,mount isa,AU,2/25/2022 4:17,-20.7333,139.5,100.17,18,40,8.05,scattered clouds,0,0
162,katherine,AU,2/25/2022 4:17,-14.4667,132.2667,93.52,43,40,12.66,scattered clouds,0,0
163,taoudenni,ML,2/25/2022 4:17,22.6783,-3.9836,76.6,13,98,13.62,overcast clouds,0,0
164,new norfolk,AU,2/25/2022 4:17,-42.7826,147.0587,68.67,33,61,4.41,broken clouds,0,0
165,norman wells,CA,2/25/2022 4:17,65.282,-126.8329,12.24,85,75,0,broken clouds,0,0
166,kimbe,PG,2/25/2022 4:17,-5.5502,150.1429,81.99,83,97,5.5,moderate rain,0,0
167,dunmore town,BS,2/25/2022 4:17,25.5,-76.65,73.98,68,56,18.12,broken clouds,0,0
168,diamantino,BR,2/25/2022 4:17,-14.4086,-56.4461,72.21,95,58,3.98,broken clouds,0,0
169,lukovetskiy,RU,2/25/2022 4:17,64.2956,41.9211,33.78,96,100,10.89,overcast clouds,0,0
170,laguna de perlas,NI,2/25/2022 4:17,12.3429,-83.6712,75.29,86,15,9.26,few clouds,0,0
171,minsk,BY,2/25/2022 4:17,53.9,27.5667,31.75,82,100,18.01,overcast clouds,0,0
172,olafsvik,IS,2/25/2022 4:17,64.8945,-23.7142,30.31,75,91,21.83,overcast clouds,0,0
173,douentza,ML,2/25/2022 4:17,14.9951,-2.9517,73.71,10,0,4.23,clear sky,0,0
174,whitehorse,CA,2/25/2022 4:15,60.7161,-135.0538,23.77,74,40,17.27,scattered clouds,0,0
175,shingu,JP,2/25/2022 4:17,33.7333,135.9833,50.99,31,0,1.61,clear sky,0,0
176,lujan,AR,2/25/2022 4:17,-34.5703,-59.105,66.94,96,0,1.01,clear sky,0,0
177,deputatskiy,RU,2/25/2022 4:17,69.3,139.9,0.1,80,100,3.4,overcast clouds,0,0
178,cheyenne,US,2/25/2022 4:13,41.14,-104.8203,13.91,74,40,9.22,scattered clouds,0,0
179,popondetta,PG,2/25/2022 4:17,-8.7537,148.2534,89.42,60,89,7.34,overcast clouds,0,0
180,kaitangata,NZ,2/25/2022 4:17,-46.2817,169.8464,64.92,73,0,7.25,clear sky,0,0
181,berlevag,NO,2/25/2022 4:17,70.8578,29.0864,28.4,89,92,14.05,light snow,0,0
182,tanete,ID,2/25/2022 4:17,-3.9443,119.7848,83.77,69,100,7.67,overcast clouds,0,0
183,solenzo,BF,2/25/2022 4:17,12.1833,-4.0833,77.25,10,2,4.52,clear sky,0,0
184,waingapu,ID,2/25/2022 4:17,-9.6567,120.2641,85.87,67,92,9.71,overcast clouds,0,0
185,sogne,NO,2/25/2022 4:17,58.0833,7.8167,37.69,82,21,11.27,few clouds,0,0
186,bluff,NZ,2/25/2022 4:17,-46.6,168.3333,61.07,71,4,2.3,clear sky,0,0
187,qaanaaq,GL,2/25/2022 4:15,77.484,-69.3632,-12.48,54,99,3.98,overcast clouds,0,0
188,cidreira,BR,2/25/2022 4:17,-30.1811,-50.2056,75.52,83,95,17.63,light rain,0,0
189,nikolskoye,RU,2/25/2022 4:17,59.7035,30.7861,34.88,86,100,13.65,overcast clouds,0,0
190,broken hill,AU,2/25/2022 4:17,-31.95,141.4333,90.77,30,7,18.75,clear sky,0,0
191,port alfred,ZA,2/25/2022 4:14,-33.5906,26.891,72.55,87,14,20.04,few clouds,0,0
192,taltal,CL,2/25/2022 4:17,-25.4,-70.4833,66.49,83,7,3.15,clear sky,0,0
193,samarai,PG,2/25/2022 4:17,-10.6167,150.6667,84.45,72,62,14.88,broken clouds,0,0
194,matara,LK,2/25/2022 4:17,5.9485,80.5353,83.82,64,6,3.98,clear sky,0,0
195,belmonte,BR,2/25/2022 4:17,-15.8631,-38.8828,81.1,86,7,3.06,clear sky,0,0
196,antofagasta,CL,2/25/2022 4:12,-23.65,-70.4,63.68,85,27,3.02,scattered clouds,0,0
197,yumen,CN,2/25/2022 4:17,40.2833,97.2,37,23,0,17.31,clear sky,0,0
198,clyde river,CA,2/25/2022 4:17,70.4692,-68.5914,-14.57,70,100,20.71,haze,0,0
199,qaqortoq,GL,2/25/2022 4:17,60.7167,-46.0333,32.5,86,100,10.69,light snow,0,0
200,maniwaki,CA,2/25/2022 4:17,46.3834,-75.966,3.74,85,100,0,overcast clouds,0,0
201,north bend,US,2/25/2022 4:17,43.4065,-124.2243,39.13,91,0,5.75,clear sky,0,0
202,le port,RE,2/25/2022 4:17,-20.9373,55.2919,82.4,84,100,2.19,overcast clouds,0,0
203,sidney,AU,2/25/2022 4:14,-33.8679,151.2073,75.27,91,75,42.99,shower rain,0,0
204,varzea da palma,BR,2/25/2022 4:17,-17.5981,-44.7308,70.59,86,89,1.48,overcast clouds,0,0
205,geraldton,AU,2/25/2022 4:17,-28.7667,114.6,82.81,61,16,14.97,few clouds,0,0
206,camana,PE,2/25/2022 4:17,-16.6228,-72.7111,71.89,90,100,9.04,overcast clouds,0,0
207,novo aripuana,BR,2/25/2022 4:17,-5.1206,-60.3797,74.32,98,100,2.51,moderate rain,0,0
208,lorengau,PG,2/25/2022 4:17,-2.0226,147.2712,83.16,74,100,7.31,overcast clouds,0,0
209,fairbanks,US,2/25/2022 4:13,64.8378,-147.7164,29.1,85,75,0,broken clouds,0,0
210,boueni,YT,2/25/2022 4:17,-12.9025,45.0761,78.78,75,100,6.58,light rain,0,0
211,mackay,AU,2/25/2022 4:15,-21.15,149.2,85.6,68,87,12.95,overcast clouds,0,0
212,alexandria,EG,2/25/2022 4:13,31.2156,29.9553,56.86,64,75,26.42,broken clouds,0,0
213,svatove,UA,2/25/2022 4:17,49.4103,38.1503,31.33,92,100,12.57,light snow,0,0
214,charqueada,BR,2/25/2022 4:17,-22.5097,-47.7781,66.07,89,20,3,few clouds,0,0
215,gladstone,AU,2/25/2022 4:17,-23.85,151.25,89.53,51,100,11.5,overcast clouds,0,0
216,san cristobal,VE,2/25/2022 4:17,7.7669,-72.225,68.18,93,87,2.42,overcast clouds,0,0
217,xingtai,CN,2/25/2022 4:17,37.0631,114.4942,59.83,23,0,9.04,clear sky,0,0
218,pemangkat,ID,2/25/2022 4:17,1.1667,108.9667,83.44,70,92,4,overcast clouds,0,0
219,chiautla,MX,2/25/2022 4:17,19.5333,-98.8833,67.95,30,0,5.08,clear sky,0,0
220,vila franca do campo,PT,2/25/2022 4:17,37.7167,-25.4333,57.61,81,78,8.34,broken clouds,0,0
221,korla,CN,2/25/2022 4:17,41.7597,86.1469,38.89,32,70,2.04,broken clouds,0,0
222,grindavik,IS,2/25/2022 4:17,63.8424,-22.4338,32.47,86,75,25.32,broken clouds,0,0
223,vrangel,RU,2/25/2022 4:17,42.7297,133.0839,32.32,57,0,14.58,clear sky,0,0
224,flin flon,CA,2/25/2022 4:15,54.7682,-101.865,-2.13,92,43,8.79,scattered clouds,0,0
225,san patricio,US,2/25/2022 4:17,28.017,-97.5169,41.9,74,100,15.79,overcast clouds,0,0
226,ahipara,NZ,2/25/2022 4:17,-35.1667,173.1667,69.91,71,82,2.51,broken clouds,0,0
227,brownsville,US,2/25/2022 4:17,25.9018,-97.4975,53.55,87,100,12.66,mist,0,0
228,nueva imperial,CL,2/25/2022 4:17,-38.7333,-72.95,54.25,96,2,1.52,clear sky,0,0
229,muisne,EC,2/25/2022 4:17,0.6,-80.0333,73.8,90,100,4.79,overcast clouds,0,0
230,okhotsk,RU,2/25/2022 4:17,59.3833,143.3,7.56,75,94,17.02,overcast clouds,0,0
231,anloga,GH,2/25/2022 4:16,5.7947,0.8973,80.08,86,4,8.61,clear sky,0,0
232,porto belo,BR,2/25/2022 4:17,-27.1578,-48.5531,79.25,83,97,6.71,overcast clouds,0,0
233,egvekinot,RU,2/25/2022 4:17,66.3167,-179.1667,3.2,95,100,15.5,snow,0,0
234,sao joaquim,BR,2/25/2022 4:17,-28.2939,-49.9317,58.37,99,24,3.31,light rain,0,0
235,batagay,RU,2/25/2022 4:17,67.6333,134.6333,-5.13,95,100,2.68,overcast clouds,0,0
236,san carlos de bariloche,AR,2/25/2022 4:17,-41.1456,-71.3082,53.35,76,75,18.41,broken clouds,0,0
237,antonovo,BG,2/25/2022 4:17,43.15,26.1667,30.52,86,6,2.15,clear sky,0,0
238,mayo,US,2/25/2022 4:17,38.8876,-76.5119,34.66,91,100,6.91,moderate rain,0,0
239,cunha,BR,2/25/2022 4:17,-23.0744,-44.9597,61.56,96,23,1.5,few clouds,0,0
240,tabio,CO,2/25/2022 4:17,4.9173,-74.0936,53.2,94,100,2.19,overcast clouds,0,0
241,sault sainte marie,CA,2/25/2022 4:14,46.5168,-84.3333,12.49,57,100,0,overcast clouds,0,0
242,sao jose da coroa grande,BR,2/25/2022 4:17,-8.8978,-35.1478,78.93,74,14,5.84,few clouds,0,0
243,ushtobe,KZ,2/25/2022 4:17,45.2514,77.9838,29.75,74,98,2.15,overcast clouds,0,0
244,takaka,NZ,2/25/2022 4:17,-40.85,172.8,65.55,71,75,3.87,broken clouds,0,0
245,fort-shevchenko,KZ,2/25/2022 4:17,44.5086,50.263,45.75,69,33,13.71,scattered clouds,0,0
246,berdigestyakh,RU,2/25/2022 4:17,62.0989,126.6992,9.28,89,100,9.8,overcast clouds,0,0
247,quatre cocos,MU,2/25/2022 4:17,-20.2078,57.7625,82.09,83,100,7.18,overcast clouds,0,0
248,torbay,CA,2/25/2022 4:15,47.6666,-52.7314,22.57,81,100,17.27,light shower snow,0,0
249,tougue,GN,2/25/2022 4:17,11.4667,-11.6,71.42,33,8,2.15,clear sky,0,0
250,butembo,CD,2/25/2022 4:17,0.15,29.2833,59.29,71,93,2.53,overcast clouds,0,0
251,ambilobe,MG,2/25/2022 4:17,-13.2,49.05,76.96,90,26,1.1,scattered clouds,0,0
252,dunedin,NZ,2/25/2022 4:13,-45.8742,170.5036,61.81,73,16,15.99,few clouds,0,0
253,caldwell,US,2/25/2022 4:13,43.6629,-116.6874,26.98,71,20,5.75,few clouds,0,0
254,ambatofinandrahana,MG,2/25/2022 4:17,-20.55,46.8,63.84,96,100,2.44,light rain,0,0
255,armstrong,AR,2/25/2022 4:17,-32.7822,-61.6022,63.75,52,0,8.1,clear sky,0,0
256,saint anthony,US,2/25/2022 4:15,45.0205,-93.218,12.25,83,100,9.22,overcast clouds,0,0
257,yibin,CN,2/25/2022 4:17,28.7667,104.6238,55.33,56,13,3.8,few clouds,0,0
258,comodoro rivadavia,AR,2/25/2022 4:17,-45.8667,-67.5,67.86,37,0,12.66,clear sky,0,0
259,lehi,US,2/25/2022 4:17,40.3916,-111.8508,26.08,57,96,3,overcast clouds,0,0
260,yellowknife,CA,2/25/2022 4:17,62.456,-114.3525,7.32,85,75,4.61,light snow,0,0
261,baghdad,IQ,2/25/2022 4:14,33.3406,44.4009,62.51,42,1,13.8,clear sky,0,0
262,srisailam,IN,2/25/2022 4:17,16.0833,78.8667,81.41,22,9,5.99,clear sky,0,0
263,codrington,AU,2/25/2022 4:17,-38.2667,141.9667,66.24,54,31,19.04,scattered clouds,0,0
264,leh,IN,2/25/2022 4:17,34.1667,77.5833,14.07,89,100,2.66,overcast clouds,0,0
265,eureka,US,2/25/2022 4:17,40.8021,-124.1637,40.75,83,33,4.14,scattered clouds,0,0
266,moose factory,CA,2/25/2022 4:17,51.2585,-80.6094,-16.62,76,0,1.14,clear sky,0,0
267,launceston,AU,2/25/2022 4:17,-41.45,147.1667,76.6,47,46,20.71,scattered clouds,0,0
268,babu,CN,2/25/2022 4:17,24.4167,111.5167,56.93,60,0,2.77,clear sky,0,0
269,seymchan,RU,2/25/2022 4:17,62.8833,152.4333,-4.85,90,100,9.84,light snow,0,0
270,hovd,MN,2/25/2022 4:18,48.0056,91.6419,7.86,74,60,3.4,broken clouds,0,0
271,lavrentiya,RU,2/25/2022 4:18,65.5833,-171,32.99,98,100,14.47,snow,0,0
272,north myrtle beach,US,2/25/2022 4:18,33.816,-78.68,62.38,98,100,5.75,fog,0,0
273,warman,CA,2/25/2022 4:15,52.3168,-106.5679,-7.11,73,0,8.05,clear sky,0,0
274,asfi,MA,2/25/2022 4:18,32.2994,-9.2372,60.93,90,84,8.32,broken clouds,0,0
275,rawson,AR,2/25/2022 4:18,-43.3002,-65.1023,60.26,78,100,9.08,overcast clouds,0,0
276,zheshart,RU,2/25/2022 4:18,62.0731,49.5733,20.34,89,97,11.54,overcast clouds,0,0
277,talnakh,RU,2/25/2022 4:18,69.4865,88.3972,-2.63,76,99,8.5,overcast clouds,0,0
278,taiyuan,CN,2/25/2022 4:18,37.8694,112.5603,46.26,29,0,4.47,clear sky,0,0
279,cuamba,MZ,2/25/2022 4:18,-14.8031,36.5372,66.69,97,96,0.49,overcast clouds,0,0
280,chabahar,IR,2/25/2022 4:18,25.2919,60.643,71.78,61,1,5.41,clear sky,0,0
281,vuktyl,RU,2/25/2022 4:18,63.8567,57.3094,12.58,86,100,14.99,overcast clouds,0,0
282,vardo,NO,2/25/2022 4:18,70.3705,31.1107,19.6,75,36,15.55,scattered clouds,0,0
283,storm lake,US,2/25/2022 4:18,42.6411,-95.2097,7.36,92,100,12.66,mist,0,0
284,marsh harbour,BS,2/25/2022 4:18,26.5412,-77.0636,72.59,68,1,15.57,clear sky,0,0
285,dhidhdhoo,MV,2/25/2022 4:18,6.8833,73.1,81.9,72,10,10.36,clear sky,0,0
286,san quintin,MX,2/25/2022 4:18,30.4833,-115.95,48.43,49,0,7.23,clear sky,0,0
287,carnarvon,AU,2/25/2022 4:18,-24.8667,113.6333,84.27,65,13,21.85,few clouds,0,0
288,skjervoy,NO,2/25/2022 4:18,70.0311,20.9714,28.58,93,100,14.88,light snow,0,0
289,san andres,CO,2/25/2022 4:18,12.5847,-81.7006,80.62,74,20,14.97,few clouds,0,0
290,kodiak,US,2/25/2022 4:18,57.79,-152.4072,42.31,87,100,24.16,light rain,0,0
291,dudinka,RU,2/25/2022 4:18,69.4058,86.1778,5.5,86,100,7.7,overcast clouds,0,0
292,jiaocheng,CN,2/25/2022 4:18,24.6774,116.1389,62.82,57,4,0.22,clear sky,0,0
293,usinsk,RU,2/25/2022 4:18,65.9939,57.5281,12.42,92,100,26.6,light snow,0,0
294,washington,US,2/25/2022 4:17,47.5001,-120.5015,25.84,71,9,1.74,clear sky,0,0
295,mozarlandia,BR,2/25/2022 4:18,-14.7447,-50.5706,72.99,91,3,2.93,clear sky,0,0
296,henties bay,NA,2/25/2022 4:18,-22.116,14.2845,66.85,87,0,5.19,clear sky,0,0
297,saint-georges,GD,2/25/2022 4:16,12.0564,-61.7485,76.68,83,20,0,few clouds,0,0
298,ouahigouya,BF,2/25/2022 4:18,13.5828,-2.4216,74.57,9,0,10.85,clear sky,0,0
299,nome,US,2/25/2022 4:18,64.5011,-165.4064,35.67,81,100,17.27,overcast clouds,0,0
300,roald,NO,2/25/2022 4:18,62.5833,6.1333,37.54,81,68,5.75,light rain,0,0
301,high rock,BS,2/25/2022 4:18,26.6208,-78.2833,68.02,71,11,14.79,few clouds,0,0
302,carballo,ES,2/25/2022 4:18,43.213,-8.691,50.54,87,81,12.53,broken clouds,0,0
303,sao joao da barra,BR,2/25/2022 4:18,-21.6403,-41.0511,73.38,95,1,7.05,clear sky,0,0
304,abu kamal,SY,2/25/2022 4:18,34.4506,40.9171,55.31,70,1,14.7,clear sky,0,0
305,ko samui,TH,2/25/2022 4:18,9.5357,99.9357,82.31,78,20,14.97,thunderstorm with light rain,0,0
306,kununurra,AU,2/25/2022 4:15,-15.7667,128.7333,93.18,52,40,9.22,scattered clouds,0,0
307,nara,JP,2/25/2022 4:13,34.6851,135.8049,50.97,32,2,8.46,clear sky,0,0
308,sindor,RU,2/25/2022 4:18,62.8629,51.8905,18.5,90,100,11.36,overcast clouds,0,0
309,chumikan,RU,2/25/2022 4:18,54.7183,135.315,18.68,81,9,20.29,clear sky,0,0
310,tautira,PF,2/25/2022 4:18,-17.7333,-149.15,84,77,46,13.53,light rain,0,0
311,finnsnes,NO,2/25/2022 4:18,69.2296,17.9811,29.75,96,85,11.12,snow,0,0
312,luwuk,ID,2/25/2022 4:18,-0.9516,122.7875,89.96,50,86,5.48,overcast clouds,0,0
313,gmunden,AT,2/25/2022 4:18,47.9189,13.7975,38.01,87,96,8.75,light snow,0,0
314,carutapera,BR,2/25/2022 4:18,-1.195,-46.02,76.91,92,55,5.55,broken clouds,0,0
315,montevideo,UY,2/25/2022 4:18,-34.8335,-56.1674,69.51,88,75,1.14,broken clouds,0,0
316,ketchikan,US,2/25/2022 4:18,55.3422,-131.6461,34.27,93,100,4.61,mist,0,0
317,coquimbo,CL,2/25/2022 4:18,-29.9533,-71.3436,62.33,88,0,0,clear sky,0,0
318,klyuchi,RU,2/25/2022 4:18,52.2667,79.1667,25.56,94,100,8.84,overcast clouds,0,0
319,severo-kurilsk,RU,2/25/2022 4:18,50.6789,156.125,27.25,67,99,28.66,overcast clouds,0,0
320,gimli,CA,2/25/2022 4:18,50.6336,-96.9907,-11.18,77,23,5.75,few clouds,0,0
321,hearst,CA,2/25/2022 4:18,49.6835,-83.6665,-19.95,100,58,1.61,broken clouds,0,0
322,vestmannaeyjar,IS,2/25/2022 4:18,63.4427,-20.2734,39.22,77,99,33.38,overcast clouds,0,0
323,boa vista,BR,2/25/2022 4:18,2.8197,-60.6733,76.98,88,100,4.61,overcast clouds,0,0
324,shelburne,CA,2/25/2022 4:15,44.0787,-80.2041,16.56,66,100,12.39,overcast clouds,0,0
325,haines junction,CA,2/25/2022 4:18,60.7522,-137.5108,15.75,86,99,2.3,overcast clouds,0,0
326,provideniya,RU,2/25/2022 4:18,64.3833,-173.3,33.91,86,100,4.47,light intensity drizzle,0,0
327,fulton,US,2/25/2022 4:15,33.7668,-84.4499,66.61,78,0,6.91,clear sky,0,0
328,modra,SK,2/25/2022 4:18,48.334,17.3071,39.22,80,0,6.91,clear sky,0,0
329,hami,CN,2/25/2022 4:18,42.8,93.45,37.17,30,3,8.75,clear sky,0,0
330,kavaratti,IN,2/25/2022 4:18,10.5669,72.642,80.87,72,30,11.27,scattered clouds,0,0
331,hasaki,JP,2/25/2022 4:18,35.7333,140.8333,54,24,4,5.68,clear sky,0,0
332,kasongo-lunda,CD,2/25/2022 4:18,-6.4667,16.8167,69.58,99,100,2.04,moderate rain,0,0
333,hirara,JP,2/25/2022 4:18,24.8,125.2833,69.66,52,40,19.57,scattered clouds,0,0
334,qui nhon,VN,2/25/2022 4:18,13.7667,109.2333,69.75,91,100,16.04,overcast clouds,0,0
335,tura,IN,2/25/2022 4:18,25.5198,90.2201,73.4,52,22,2.17,few clouds,0,0
336,saskylakh,RU,2/25/2022 4:18,71.9167,114.0833,-22.85,99,60,3.24,broken clouds,0,0
337,madera,US,2/25/2022 4:17,37.1666,-119.8343,48.11,54,20,5.12,few clouds,0,0
338,mount gambier,AU,2/25/2022 4:18,-37.8333,140.7667,70.11,45,12,14.97,few clouds,0,0
339,cartagena,CO,2/25/2022 4:18,10.3997,-75.5144,78.42,69,0,12.66,clear sky,0,0
340,lima,PE,2/25/2022 4:18,-12.0432,-77.0282,68.4,37,40,10.36,fog,0,0
341,atar,MR,2/25/2022 4:18,20.5169,-13.0499,71.17,36,85,7.07,overcast clouds,0,0
342,nantucket,US,2/25/2022 4:18,41.2835,-70.0995,33.15,76,100,13.85,overcast clouds,0,0
343,port arthur,CN,2/25/2022 4:18,38.8,121.2667,53.82,58,0,15.48,clear sky,0,0
344,shu,KZ,2/25/2022 4:18,43.5983,73.7614,43.29,59,99,2.51,overcast clouds,0,0
345,ahuimanu,US,2/25/2022 4:18,21.4447,-157.8378,78.51,68,75,11.5,broken clouds,0,0
346,skovorodino,RU,2/25/2022 4:18,53.9833,123.9167,24.1,68,100,4.21,overcast clouds,0,0
347,kahului,US,2/25/2022 4:16,20.8947,-156.47,78.82,67,40,18.41,scattered clouds,0,0
348,port hedland,AU,2/25/2022 4:18,-20.3167,118.5667,98.65,59,28,10.36,scattered clouds,0,0
349,bethel,US,2/25/2022 4:18,41.3712,-73.414,31.5,46,100,6.91,overcast clouds,0,0
350,mitsamiouli,KM,2/25/2022 4:18,-11.3847,43.2844,81.61,80,100,7.49,light rain,0,0
351,alice springs,AU,2/25/2022 4:18,-23.7,133.8833,96.22,43,0,14.97,clear sky,0,0
352,faanui,PF,2/25/2022 4:18,-16.4833,-151.75,81.93,72,43,15.08,scattered clouds,0,0
353,naze,JP,2/25/2022 4:16,28.3667,129.4833,56.32,54,13,13.11,few clouds,0,0
354,babati,TZ,2/25/2022 4:18,-4.2167,35.75,60.55,93,99,2.98,overcast clouds,0,0
355,columbus,US,2/25/2022 4:18,39.9612,-82.9988,35.56,95,100,4.61,light rain,0,0
356,faya,SA,2/25/2022 4:18,18.3851,42.4509,55.51,38,23,4.63,few clouds,0,0
357,isiro,CD,2/25/2022 4:18,2.7739,27.616,64,67,80,2.62,broken clouds,0,0
358,dafeng,CN,2/25/2022 4:18,23.4517,108.5881,57.04,56,8,4.32,clear sky,0,0
359,pangai,TO,2/25/2022 4:18,-19.8,-174.35,82.51,74,75,10.36,broken clouds,0,0
360,aksha,RU,2/25/2022 4:18,50.2814,113.2867,23.04,64,6,18.16,clear sky,0,0
361,luau,AO,2/25/2022 4:18,-10.7073,22.2247,63.14,99,100,3.24,light rain,0,0
362,colesberg,ZA,2/25/2022 4:18,-30.72,25.0972,66.42,56,36,6.73,scattered clouds,0,0
363,nanortalik,GL,2/25/2022 4:18,60.1432,-45.2371,20.68,87,100,22.17,overcast clouds,0,0
364,khorixas,NA,2/25/2022 4:18,-20.3667,14.9667,73.87,41,5,0.89,clear sky,0,0
365,massakory,TD,2/25/2022 4:18,12.996,15.7293,66.56,14,36,13.49,scattered clouds,0,0
366,havelock,US,2/25/2022 4:18,34.8791,-76.9013,51.78,93,27,4.9,scattered clouds,0,0
367,port blair,IN,2/25/2022 4:18,11.6667,92.75,84.24,74,20,12.66,mist,0,0
368,puerto ayora,EC,2/25/2022 4:18,-0.7393,-90.3518,74.93,87,51,7.14,broken clouds,0,0
369,margate,GB,2/25/2022 4:18,51.3813,1.3862,39.96,74,7,5.01,clear sky,0,0
370,vostok,RU,2/25/2022 4:18,46.4856,135.8833,21.07,86,100,8.23,overcast clouds,0,0
371,mukhen,RU,2/25/2022 4:18,48.1,136.1,24.94,83,99,12.26,overcast clouds,0,0
372,alyangula,AU,2/25/2022 4:18,-13.8483,136.4192,88.14,57,11,7.43,few clouds,0,0
373,carauari,BR,2/25/2022 4:18,-4.8828,-66.8958,72.57,99,62,2.08,broken clouds,0,0
374,arlit,NE,2/25/2022 4:18,18.7369,7.3853,60.6,12,0,3.53,clear sky,0,0
375,byron bay,AU,2/25/2022 4:18,-28.65,153.6167,78.75,88,100,11.16,overcast clouds,0,0
376,airai,TL,2/25/2022 4:18,-8.9266,125.4092,65.91,85,100,4.85,overcast clouds,0,0
377,los llanos de aridane,ES,2/25/2022 4:18,28.6585,-17.9182,60.55,75,20,16.11,few clouds,0,0
378,cayenne,GF,2/25/2022 4:15,4.9333,-52.3333,75.09,92,75,3.44,broken clouds,0,0
379,beeville,US,2/25/2022 4:18,28.4008,-97.7483,37.98,100,100,10.36,mist,0,0
380,amuntai,ID,2/25/2022 4:18,-2.4177,115.2494,87.62,58,100,1.21,overcast clouds,0,0
381,montecristo,CO,2/25/2022 4:18,8.2971,-74.4733,74.19,91,37,0.78,scattered clouds,0,0
382,zlitan,LY,2/25/2022 4:18,32.4674,14.5687,51.91,72,1,8.01,clear sky,0,0
383,rocha,UY,2/25/2022 4:18,-34.4833,-54.3333,67.3,94,100,3.67,overcast clouds,0,0
384,rio gallegos,AR,2/25/2022 4:18,-51.6226,-69.2181,53.65,94,75,3.44,broken clouds,0,0
385,otrado-kubanskoye,RU,2/25/2022 4:18,45.2442,40.8408,41.16,76,100,13.18,overcast clouds,0,0
386,iberia,US,2/25/2022 4:18,29.9502,-91.7507,71.67,94,100,9.22,overcast clouds,0,0
387,san felipe,VE,2/25/2022 4:18,10.3399,-68.7425,69.06,93,79,3.94,broken clouds,0,0
388,itarema,BR,2/25/2022 4:18,-2.9248,-39.9167,80.67,78,97,13.58,overcast clouds,0,0
389,cockburn town,TC,2/25/2022 4:13,21.4612,-71.1419,75.34,73,35,19.64,scattered clouds,0,0
390,ancud,CL,2/25/2022 4:18,-41.8697,-73.8203,54.43,88,12,6.29,few clouds,0,0
391,norton,ZW,2/25/2022 4:18,-17.8833,30.7,61.29,96,4,4.38,clear sky,0,0
392,ortona,IT,2/25/2022 4:18,42.3496,14.4039,51.15,57,20,3.71,few clouds,0,0
393,praia da vitoria,PT,2/25/2022 4:18,38.7333,-27.0667,56.75,82,40,8.86,scattered clouds,0,0
394,ryotsu,JP,2/25/2022 4:18,38.0833,138.4333,46.36,55,94,21.61,overcast clouds,0,0
395,sassandra,CI,2/25/2022 4:18,4.95,-6.0833,76.55,93,21,3.24,few clouds,0,0
396,nishihara,JP,2/25/2022 4:18,26.1842,127.7558,64.06,52,75,13.8,broken clouds,0,0
397,riyadh,SA,2/25/2022 4:15,24.6877,46.7219,59.14,37,0,3.44,clear sky,0,0
398,oksfjord,NO,2/25/2022 4:18,70.2396,22.3479,29.32,96,100,12.48,snow,0,0
399,merauke,ID,2/25/2022 4:18,-8.4667,140.3333,80.22,81,100,16.42,heavy intensity rain,0,0
400,mildura,AU,2/25/2022 4:18,-34.2,142.15,89.56,31,28,16.11,scattered clouds,0,0
401,cabo san lucas,MX,2/25/2022 4:16,22.8909,-109.9124,69.51,74,7,1.81,clear sky,0,0
402,ust-nera,RU,2/25/2022 4:18,64.5667,143.2,-6.27,86,100,3.33,overcast clouds,0,0
403,flagstaff,US,2/25/2022 4:18,35.1981,-111.6513,26.26,82,0,3.44,clear sky,0,0
404,nemuro,JP,2/25/2022 4:18,43.3236,145.575,32.43,70,52,9.48,broken clouds,0,0
405,mettingen,DE,2/25/2022 4:18,52.3167,7.7833,37.74,83,42,17.18,scattered clouds,0,0
406,vao,NC,2/25/2022 4:18,-22.6667,167.4833,79.25,78,77,14.34,broken clouds,0,0
407,broome,US,2/25/2022 4:18,42.2506,-75.833,30.02,55,100,6.91,overcast clouds,0,0
408,timra,SE,2/25/2022 4:18,62.487,17.3257,8.31,97,100,3.36,overcast clouds,0,0
409,necochea,AR,2/25/2022 4:18,-38.5473,-58.7368,64.04,50,1,16.71,clear sky,0,0
410,motatei,RO,2/25/2022 4:18,44.0833,23.2,32.22,74,31,4.52,scattered clouds,0,0
411,sarahan,IN,2/25/2022 4:18,31.5167,77.8,40.91,66,59,1.86,broken clouds,0,0
412,saint-prosper,CA,2/25/2022 4:18,46.2117,-70.4811,2.68,98,41,0.43,scattered clouds,0,0
413,bowling green,US,2/25/2022 4:18,36.9903,-86.4436,42.73,92,100,4.61,overcast clouds,0,0
414,nuuk,GL,2/25/2022 4:18,64.1835,-51.7216,-19.48,97,34,7.92,scattered clouds,0,0
415,yar-sale,RU,2/25/2022 4:18,66.8333,70.8333,0.5,97,95,5.95,overcast clouds,0,0
416,gueret,FR,2/25/2022 4:15,46.1667,1.8667,32.63,95,83,1.66,broken clouds,0,0
417,souillac,MU,2/25/2022 4:18,-20.5167,57.5167,82.36,94,40,4.61,scattered clouds,0,0
418,klaksvik,FO,2/25/2022 4:19,62.2266,-6.589,32.92,58,99,21.83,overcast clouds,0,0
419,juneau,US,2/25/2022 4:19,58.3019,-134.4197,33.22,94,100,0,overcast clouds,0,0
420,svetlyy,RU,2/25/2022 4:19,54.675,20.1347,39.25,90,94,24.61,overcast clouds,0,0
421,doha,QA,2/25/2022 4:18,25.2867,51.5333,64.29,88,20,4.61,mist,0,0
422,aklavik,CA,2/25/2022 4:19,68.2191,-135.0107,2.23,96,94,10.8,overcast clouds,0,0
423,grand gaube,MU,2/25/2022 4:19,-20.0064,57.6608,82.38,78,100,5.01,overcast clouds,0,0
424,luderitz,NA,2/25/2022 4:19,-26.6481,15.1594,66.24,67,0,18.79,clear sky,0,0
425,ostersund,SE,2/25/2022 4:19,63.1792,14.6357,5.92,98,82,2.64,broken clouds,0,0
426,tilichiki,RU,2/25/2022 4:19,60.4667,166.1,24.93,82,100,20.04,overcast clouds,0,0
427,yunyang,CN,2/25/2022 4:19,33.4474,112.7142,53.49,40,47,12.35,scattered clouds,0,0
428,santander,ES,2/25/2022 4:19,43.4647,-3.8044,47.98,96,75,3.44,broken clouds,0,0
429,beaverlodge,CA,2/25/2022 4:19,55.2166,-119.4361,20.55,90,16,6.44,few clouds,0,0
430,surt,LY,2/25/2022 4:19,31.2089,16.5887,54.7,63,2,5.57,clear sky,0,0
431,tungor,RU,2/25/2022 4:19,53.3808,142.9564,20.34,77,29,18.95,scattered clouds,0,0
432,urumqi,CN,2/25/2022 4:19,43.801,87.6005,16.75,73,62,2.24,mist,0,0
433,obertyn,UA,2/25/2022 4:19,48.7003,25.1701,30.76,74,62,2.3,broken clouds,0,0
434,shieli,KZ,2/25/2022 4:19,44.1667,66.75,42.01,60,13,3.36,few clouds,0,0
435,cherskiy,RU,2/25/2022 4:19,68.75,161.3,-5.1,95,100,5.06,overcast clouds,0,0
436,jibuti,DJ,2/25/2022 4:19,11.5,42.5,74.62,79,94,12.35,overcast clouds,0,0
437,ostrovnoy,RU,2/25/2022 4:19,68.0531,39.5131,30.6,82,59,28.72,broken clouds,0,0
438,ormara,PK,2/25/2022 4:19,25.2088,64.6357,72.52,56,0,7.92,clear sky,0,0
439,gizo,SB,2/25/2022 4:19,-8.103,156.8419,82.78,74,69,4.68,light rain,0,0
440,beira,MZ,2/25/2022 4:19,-19.8436,34.8389,75.29,100,40,4.61,scattered clouds,0,0
441,adeje,ES,2/25/2022 4:19,28.1227,-16.726,63.95,71,20,5.75,few clouds,0,0
442,myitkyina,MM,2/25/2022 4:19,25.3833,97.4,77.14,34,20,3.51,few clouds,0,0
443,lysogorskaya,RU,2/25/2022 4:19,44.1064,43.2756,38.75,93,99,6.35,overcast clouds,0,0
444,mandal,IN,2/25/2022 4:19,25.45,74.5667,71.92,33,0,7.11,clear sky,0,0
445,whyalla,AU,2/25/2022 4:19,-33.0333,137.5833,80.49,47,100,20.71,overcast clouds,0,0
446,blagoveshchensk,RU,2/25/2022 4:19,50.2667,127.5333,30.81,43,20,6.71,few clouds,0,0
447,bardiyah,LY,2/25/2022 4:19,31.7561,25.0865,54.21,59,10,21.77,clear sky,0,0
448,pucallpa,PE,2/25/2022 4:19,-8.3791,-74.5539,74.01,90,55,1.21,broken clouds,0,0
449,twin falls,US,2/25/2022 4:19,42.3505,-114.6445,17.49,79,100,11.5,overcast clouds,0,0
450,mosquera,CO,2/25/2022 4:19,4.7059,-74.2302,53.69,94,75,0,light rain,0,0
451,half moon bay,US,2/25/2022 4:19,37.4636,-122.4286,48.92,75,20,13.8,few clouds,0,0
452,joshimath,IN,2/25/2022 4:19,30.5667,79.5667,45.18,68,79,0.63,broken clouds,0,0
453,ilam,NP,2/25/2022 4:19,26.9167,87.9167,62.49,50,28,5.39,scattered clouds,0,0
454,portland,US,2/25/2022 4:15,45.5234,-122.6762,35.6,83,0,3,clear sky,0,0
455,aswan,EG,2/25/2022 4:19,24.0934,32.907,54.61,60,0,7.78,clear sky,0,0
456,tessalit,ML,2/25/2022 4:19,20.1986,1.0114,71.64,13,5,13.11,clear sky,0,0
457,asau,RO,2/25/2022 4:19,46.4333,26.4,31.95,72,3,5.12,clear sky,0,0
458,dingle,PH,2/25/2022 4:19,10.9995,122.6711,84.6,60,98,18.97,overcast clouds,0,0
459,aktas,KZ,2/25/2022 4:19,49.7789,72.9608,20.95,88,74,6.08,broken clouds,0,0
460,khandyga,RU,2/25/2022 4:19,62.6667,135.6,-4.54,90,94,0.94,overcast clouds,0,0
461,swellendam,ZA,2/25/2022 4:19,-34.0226,20.4417,70.9,91,98,3.6,overcast clouds,0,0
462,sola,VU,2/25/2022 4:19,-13.8833,167.55,82.99,68,61,2.26,broken clouds,0,0
463,kalmunai,LK,2/25/2022 4:19,7.4167,81.8167,80.82,73,68,11.54,broken clouds,0,0
464,adrar,MR,2/25/2022 4:19,20.5022,-10.0711,76.93,5,100,7.34,overcast clouds,0,0
465,markova,UA,2/25/2022 4:19,48.6758,24.4138,26.91,74,76,6.35,broken clouds,0,0
466,diffa,NE,2/25/2022 4:19,13.3154,12.6113,63.23,26,25,10.11,scattered clouds,0,0
467,ilhabela,BR,2/25/2022 4:19,-23.7781,-45.3581,74.3,88,10,4.68,clear sky,0,0
468,wajir,KE,2/25/2022 4:19,1.7471,40.0573,76.66,72,99,11.3,overcast clouds,0,0
469,chapais,CA,2/25/2022 4:19,49.7834,-74.8492,-22.22,100,51,3.42,broken clouds,0,0
470,luis correia,BR,2/25/2022 4:19,-2.8792,-41.6669,78.13,86,100,11.23,overcast clouds,0,0
471,zhigansk,RU,2/25/2022 4:19,66.7697,123.3711,-2.81,92,100,18.14,overcast clouds,0,0
472,huatusco,MX,2/25/2022 4:19,19.15,-96.95,62.15,87,38,1.34,scattered clouds,0,0
473,kandrian,PG,2/25/2022 4:19,-6.2167,149.55,85.08,73,83,13.02,moderate rain,0,0
474,beyneu,KZ,2/25/2022 4:19,45.3167,55.2,40.57,78,12,12.84,few clouds,0,0
475,hobyo,SO,2/25/2022 4:19,5.3505,48.5268,78.98,76,41,11.59,scattered clouds,0,0
476,sampit,ID,2/25/2022 4:19,-2.5333,112.95,90.88,48,88,3.6,overcast clouds,0,0
477,manaus,BR,2/25/2022 4:17,-3.1019,-60.025,79.29,83,40,4.61,scattered clouds,0,0
478,riachao,BR,2/25/2022 4:19,-7.3619,-46.6172,73.65,84,32,2.68,scattered clouds,0,0
479,denpasar,ID,2/25/2022 4:18,-8.65,115.2167,87.46,70,20,8.05,few clouds,0,0
480,paita,PE,2/25/2022 4:19,-5.0892,-81.1144,73.42,75,100,4.41,overcast clouds,0,0
481,mnogovershinnyy,RU,2/25/2022 4:19,53.9353,139.9242,17.74,75,11,14.41,few clouds,0,0
482,konnur,IN,2/25/2022 4:19,16.2,74.75,78.8,25,30,6.71,scattered clouds,0,0
483,vanimo,PG,2/25/2022 4:19,-2.6741,141.3028,78.24,89,100,6.11,overcast clouds,0,0
484,thinadhoo,MV,2/25/2022 4:19,0.5333,72.9333,82.54,75,9,8.14,clear sky,0,0
485,canto do buriti,BR,2/25/2022 4:19,-8.11,-42.9444,76.01,63,96,2.48,overcast clouds,0,0
486,paamiut,GL,2/25/2022 4:19,61.994,-49.6678,-0.69,91,100,28.77,overcast clouds,0,0
487,jamsa,FI,2/25/2022 4:19,61.8642,25.19,34.52,98,100,10.25,snow,0,0
488,safaga,EG,2/25/2022 4:19,26.7292,33.9365,59.99,55,0,6.51,clear sky,0,0
489,inirida,CO,2/25/2022 4:19,3.8653,-67.9239,75.2,93,96,1.68,overcast clouds,0,0
490,yarega,RU,2/25/2022 4:19,63.4354,53.5765,17.42,88,100,12.46,overcast clouds,0,0
491,verkhoyansk,RU,2/25/2022 4:19,67.5447,133.385,1.81,91,100,4.32,overcast clouds,0,0
492,dolores,AR,2/25/2022 4:19,-36.3132,-57.6792,61.88,90,0,7.05,clear sky,0,0
493,doka,SD,2/25/2022 4:19,13.5167,35.7667,72.61,11,70,13.22,broken clouds,0,0
494,pangnirtung,CA,2/25/2022 4:19,66.1451,-65.7125,-29.06,99,100,1.39,overcast clouds,0,0
495,george town,MY,2/25/2022 4:19,5.4112,100.3354,84.13,80,40,11.5,light rain,0,0
496,bulancak,TR,2/25/2022 4:19,40.9372,38.2291,48.02,87,75,6.91,light rain,0,0
497,morehead,US,2/25/2022 4:15,37.2711,-87.1764,37.99,96,100,3,drizzle,0,0
498,raga,SS,2/25/2022 4:19,8.4596,25.678,68.05,14,44,4.54,scattered clouds,0,0
499,tsiroanomandidy,MG,2/25/2022 4:19,-18.7667,46.0333,68.14,94,99,1.45,overcast clouds,0,0
500,flinders,AU,2/25/2022 4:19,-34.5833,150.8552,74.21,95,100,1.25,light rain,0,0
501,almansa,ES,2/25/2022 4:19,38.8692,-1.0971,48.65,85,100,5.57,overcast clouds,0,0
502,catalina foothills,US,2/25/2022 4:14,32.2979,-110.9187,47.35,59,0,9.22,clear sky,0,0
503,susanville,US,2/25/2022 4:19,40.4163,-120.653,31.84,58,0,9.22,clear sky,0,0
504,mus,TR,2/25/2022 4:19,39,41.75,26.74,95,100,6.33,light snow,0,0
505,puerto leguizamo,CO,2/25/2022 4:19,-0.1934,-74.7819,72.32,97,91,1.54,overcast clouds,0,0
506,sheltozero,RU,2/25/2022 4:19,61.3667,35.3667,29.79,86,100,14.85,overcast clouds,0,0
507,poum,NC,2/25/2022 4:19,-20.2333,164.0167,83.12,75,100,15.55,overcast clouds,0,0
508,pueblo nuevo,MX,2/25/2022 4:19,23.3833,-105.3833,50.07,55,0,5.82,clear sky,0,0
509,alofi,NU,2/25/2022 4:19,-19.0595,-169.9187,75.09,94,91,9.22,overcast clouds,0,0
510,seoul,KR,2/25/2022 4:19,37.5683,126.9778,49.51,53,40,10.36,scattered clouds,0,0
511,mujiayingzi,CN,2/25/2022 4:19,42.1167,118.7833,34.45,41,1,14.79,clear sky,0,0
512,mayumba,GA,2/25/2022 4:19,-3.432,10.6554,77.77,86,100,2.33,overcast clouds,0,0
513,poronaysk,RU,2/25/2022 4:19,49.2167,143.1167,28.98,61,31,8.88,scattered clouds,0,0
514,morondava,MG,2/25/2022 4:19,-20.2833,44.2833,77.76,87,89,7.65,moderate rain,0,0
515,nuevo progreso,MX,2/25/2022 4:19,23.1667,-97.95,69.6,92,94,4.74,overcast clouds,0,0
516,izhma,RU,2/25/2022 4:19,65.0083,53.9113,19.44,89,100,12.77,light snow,0,0
517,husavik,IS,2/25/2022 4:19,66.0449,-17.3389,8.51,93,52,13.78,broken clouds,0,0
518,cape coast,GH,2/25/2022 4:15,5.1053,-1.2466,78.73,92,53,7.11,broken clouds,0,0
519,pullman,US,2/25/2022 4:19,46.7313,-117.1796,18.84,88,0,5.99,clear sky,0,0
520,port hawkesbury,CA,2/25/2022 4:19,45.6169,-61.3485,20.17,64,0,10.36,clear sky,0,0
521,griffith,US,2/25/2022 4:19,41.5284,-87.4237,26.71,91,100,5.75,overcast clouds,0,0
522,karachi,PK,2/25/2022 4:17,24.9056,67.0822,67.82,88,0,0,mist,0,0
523,adra,ES,2/25/2022 4:19,36.7496,-3.0206,61.81,75,98,7.72,overcast clouds,0,0
524,severodvinsk,RU,2/25/2022 4:19,64.5635,39.8302,33.91,92,96,14.25,overcast clouds,0,0
525,darhan,MN,2/25/2022 4:19,49.4867,105.9228,16.95,89,100,5.39,overcast clouds,0,0
526,nago,JP,2/25/2022 4:19,26.5881,127.9761,64.83,54,78,11.16,broken clouds,0,0
527,lulea,SE,2/25/2022 4:19,65.5842,22.1547,26.67,86,100,6.91,overcast clouds,0,0
528,port augusta,AU,2/25/2022 4:19,-32.5,137.7667,91.71,32,33,17.63,scattered clouds,0,0
529,champerico,GT,2/25/2022 4:19,14.3,-91.9167,80.35,71,6,8.37,clear sky,0,0
530,bonavista,CA,2/25/2022 4:19,48.6499,-53.1147,21.11,69,100,19.04,overcast clouds,0,0
531,hohhot,CN,2/25/2022 4:19,40.8106,111.6522,35.89,23,0,6.71,clear sky,0,0
532,kattivakkam,IN,2/25/2022 4:19,13.2167,80.3167,83.07,68,57,4.72,broken clouds,0,0
533,swan hill,AU,2/25/2022 4:19,-35.3378,143.5544,88.95,29,56,15.37,broken clouds,0,0
534,kashan,IR,2/25/2022 4:19,33.9831,51.4364,49.59,53,0,0,clear sky,0,0
535,estreito,BR,2/25/2022 4:19,-5.7833,-43.25,75.31,80,91,2.28,overcast clouds,0,0
536,januaria,BR,2/25/2022 4:19,-15.4833,-44.3667,72.18,77,40,1.61,light rain,0,0
537,dumai,ID,2/25/2022 4:19,1.6833,101.45,80.98,84,85,4.76,overcast clouds,0,0
538,mogadishu,SO,2/25/2022 4:19,2.0371,45.3438,78.06,85,64,15.43,broken clouds,0,0
539,trelew,AR,2/25/2022 4:19,-43.249,-65.3051,60.64,77,100,7.72,overcast clouds,0,0
540,santiago del estero,AR,2/25/2022 4:19,-27.7951,-64.2615,74.8,57,83,7.72,broken clouds,0,0
541,kashi,CN,2/25/2022 4:19,39.4547,75.9797,42.01,30,20,6.71,dust,0,0
542,kholtoson,RU,2/25/2022 4:19,50.2981,103.3097,20.21,69,86,2.37,overcast clouds,0,0
543,queenstown,ZA,2/25/2022 4:19,-31.8976,26.8753,64.38,82,100,3.06,overcast clouds,0,0
544,rorvik,NO,2/25/2022 4:19,64.8621,11.2373,34.77,90,100,10.22,snow,0,0
545,ribeira brava,PT,2/25/2022 4:19,32.65,-17.0667,61.43,75,62,8.23,broken clouds,0,0
546,nevers,FR,2/25/2022 4:19,46.9167,3.3333,30.79,94,4,2.84,clear sky,0,0
547,tramore,IE,2/25/2022 4:15,52.1624,-7.1524,38.48,73,34,4,scattered clouds,0,0
548,barcelos,PT,2/25/2022 4:19,41.5388,-8.6151,54.68,76,100,6.62,overcast clouds,0,0
549,bilibino,RU,2/25/2022 4:19,68.0546,166.4372,8.82,88,100,4.41,overcast clouds,0,0
550,homer,US,2/25/2022 4:19,59.6425,-151.5483,42.8,65,75,18.41,broken clouds,0,0
551,rantepao,ID,2/25/2022 4:19,-2.9701,119.8978,82.09,58,98,1.95,light rain,0,0
552,syasstroy,RU,2/25/2022 4:19,60.1367,32.5691,31.01,85,100,17.54,overcast clouds,0,0
553,redmond,US,2/25/2022 4:19,47.674,-122.1215,35.78,79,4,1.01,clear sky,0,0
554,ternate,ID,2/25/2022 4:19,0.8,127.4,81.3,75,100,11.39,heavy intensity rain,0,0
555,cabedelo,BR,2/25/2022 4:19,-6.9811,-34.8339,77.67,68,63,11.61,broken clouds,0,0
556,diu,IN,2/25/2022 4:19,20.7141,70.9822,78.3,38,2,2.75,clear sky,0,0
557,buluang,PH,2/25/2022 4:19,13.3068,123.3425,85.5,57,100,5.99,overcast clouds,0,0
558,petauke,ZM,2/25/2022 4:19,-14.2426,31.3253,64.09,99,99,2.3,overcast clouds,0,0
559,puerto ayacucho,VE,2/25/2022 4:19,5.6639,-67.6236,76.37,81,91,4.38,overcast clouds,0,0
560,vilhena,BR,2/25/2022 4:19,-12.7406,-60.1458,68.5,97,29,2.64,scattered clouds,0,0
561,sisimiut,GL,2/25/2022 4:19,66.9395,-53.6735,-16.56,99,95,7.36,overcast clouds,0,0
562,sulangan,PH,2/25/2022 4:19,11.1373,123.7228,80.98,73,100,15.19,light rain,0,0
563,hailar,CN,2/25/2022 4:19,49.2,119.7,15.35,86,93,14.94,overcast clouds,0,0
564,mangrol,IN,2/25/2022 4:19,21.1167,70.1167,75.72,46,1,7.47,clear sky,0,0
565,caxias,PT,2/25/2022 4:19,38.7031,-9.2767,58.48,70,0,0,clear sky,0,0
566,ornskoldsvik,SE,2/25/2022 4:19,63.2909,18.7153,8.42,97,100,2.37,overcast clouds,0,0
567,soe,ID,2/25/2022 4:19,-9.8607,124.284,69.01,90,100,5.03,overcast clouds,0,0
568,arman,RU,2/25/2022 4:20,59.7,150.1667,14.02,68,100,6.35,overcast clouds,0,0
569,san giljan,MT,2/25/2022 4:20,35.9184,14.4898,54.07,76,40,6.91,scattered clouds,0,0
570,barsovo,RU,2/25/2022 4:20,61.1667,73.1667,23.13,94,98,13.18,overcast clouds,0,0
571,mbuji-mayi,CD,2/25/2022 4:20,-6.15,23.6,68.36,95,100,1.48,overcast clouds,0,0
572,akureyri,IS,2/25/2022 4:20,65.6835,-18.0878,8.53,78,0,5.75,clear sky,0,0
573,gravatai,BR,2/25/2022 4:20,-29.9444,-50.9919,76.17,94,75,8.05,thunderstorm,0,0
574,tiznit,MA,2/25/2022 4:20,29.5833,-9.5,60.89,49,67,3.13,broken clouds,0,0
575,narsaq,GL,2/25/2022 4:20,60.9167,-46.05,32.22,74,100,5.82,light snow,0,0
576,kampene,CD,2/25/2022 4:20,-3.6,26.6667,66.09,94,99,1.95,overcast clouds,0,0
577,kloulklubed,PW,2/25/2022 4:20,7.0419,134.2556,82.9,81,100,16.64,overcast clouds,0,0
578,zaozerne,UA,2/25/2022 4:20,45.1582,33.2787,39.94,90,100,18.86,overcast clouds,0,0
579,beringovskiy,RU,2/25/2022 4:20,63.05,179.3167,19.15,95,100,11.9,light snow,0,0
580,moyale,KE,2/25/2022 4:20,3.5167,39.0584,67.93,61,100,2.89,overcast clouds,0,0
581,iqaluit,CA,2/25/2022 4:20,63.7506,-68.5145,-24.07,67,100,18.41,overcast clouds,0,0
582,craig,US,2/25/2022 4:18,40.5153,-107.5464,12.85,85,100,0,mist,0,0
583,feldbach,AT,2/25/2022 4:20,46.9531,15.8883,46.02,78,69,1.81,broken clouds,0,0
584,indramayu,ID,2/25/2022 4:20,-6.3264,108.32,82.96,71,100,8.79,overcast clouds,0,0
585,san vicente,AR,2/25/2022 4:20,-26.6167,-54.1333,68.36,97,71,1.45,moderate rain,0,0
586,otjiwarongo,NA,2/25/2022 4:20,-20.4637,16.6477,69.84,26,41,5.77,scattered clouds,0,0
587,zhangjiakou,CN,2/25/2022 4:20,40.81,114.8794,32.58,45,24,2.46,few clouds,0,0
588,melivoia,GR,2/25/2022 4:20,39.75,22.8,36.45,68,1,4.23,clear sky,0,0
589,mvomero,TZ,2/25/2022 4:20,-6.25,38.6667,75.27,94,100,2.06,overcast clouds,0,0
590,agua verde,MX,2/25/2022 4:20,22.9,-106.05,69.04,68,0,9.24,clear sky,0,0
591,palauig,PH,2/25/2022 4:20,15.435,119.9045,84.96,63,4,9.1,clear sky,0,0
592,port lincoln,AU,2/25/2022 4:18,-34.7333,135.8667,70.99,58,45,15.75,scattered clouds,0,0
593,antalaha,MG,2/25/2022 4:17,-14.9003,50.2788,77.5,90,100,4.21,overcast clouds,0,0
594,clinton,US,2/25/2022 4:20,42.587,-82.9199,23.77,86,100,14.97,light snow,0,0
595,beruwala,LK,2/25/2022 4:20,6.4788,79.9828,82,72,4,4.85,clear sky,0,0
596,gaoyou,CN,2/25/2022 4:20,32.7858,119.4278,56.93,42,26,10.71,scattered clouds,0,0
597,floro,NO,2/25/2022 4:20,61.5996,5.0328,39.16,87,100,31.07,overcast clouds,0,0
598,okha,RU,2/25/2022 4:19,53.5739,142.9478,18.88,80,40,19.15,scattered clouds,0,0
599,alekseyevsk,RU,2/25/2022 4:20,57.8406,108.3492,18.97,90,100,4.79,light snow,0,0
600,kyaikkami,MM,2/25/2022 4:20,16.08,97.5675,82.54,49,2,7.72,clear sky,0,0
601,xiongzhou,CN,2/25/2022 4:20,25.1167,114.3,57.33,55,0,2.28,clear sky,0,0
602,okolona,US,2/25/2022 4:20,38.1412,-85.6877,41.4,94,100,5.75,light intensity drizzle,0,0
603,mandla,IN,2/25/2022 4:20,22.6,80.3833,77.85,30,0,5.3,clear sky,0,0
604,jiaonan,CN,2/25/2022 4:20,35.8786,119.9753,55.42,48,0,14.47,clear sky,0,0
605,madimba,TZ,2/25/2022 4:20,-10.4,40.3333,75.7,92,99,5.86,light rain,0,0
606,baykit,RU,2/25/2022 4:20,61.67,96.37,15.51,94,100,3.96,light snow,0,0
607,goderich,CA,2/25/2022 4:18,43.7501,-81.7165,19.72,58,100,17.27,overcast clouds,0,0
608,sur,OM,2/25/2022 4:20,22.5667,59.5289,74.43,51,72,1.86,broken clouds,0,0
609,belebey,RU,2/25/2022 4:20,54.1167,54.1167,9.5,100,94,1.74,overcast clouds,0,0
610,kifri,IQ,2/25/2022 4:20,34.6959,44.9661,60.98,55,24,15.55,few clouds,0,0
611,verkhnyaya inta,RU,2/25/2022 4:20,65.9811,60.3094,15.35,71,77,13.18,broken clouds,0,0
612,charleston,US,2/25/2022 4:15,32.7766,-79.9309,68.16,90,20,9.22,few clouds,0,0
613,walvis bay,NA,2/25/2022 4:20,-22.9575,14.5053,67.08,94,0,9.22,clear sky,0,0
614,rzhaksa,RU,2/25/2022 4:20,52.1338,42.0264,9.82,100,41,5.93,scattered clouds,0,0
615,pointe michel,DM,2/25/2022 4:20,15.25,-61.3833,75.67,72,15,8.7,few clouds,0,0
616,puerto escondido,MX,2/25/2022 4:20,15.85,-97.0667,81.43,69,20,0,few clouds,0,0
617,safranbolu,TR,2/25/2022 4:20,41.2508,32.6942,40.1,98,100,3.38,light rain,0,0
618,buchanan,LR,2/25/2022 4:20,5.8808,-10.0467,78.33,87,17,0.87,few clouds,0,0
619,banon,ES,2/25/2022 4:20,40.8382,-1.1909,43.86,81,0,1.14,clear sky,0,0
620,burnie,AU,2/25/2022 4:20,-41.0667,145.9167,72.95,64,39,7.25,scattered clouds,0,0
621,verkhnevilyuysk,RU,2/25/2022 4:20,63.4453,120.3167,-0.98,90,98,9.17,overcast clouds,0,0
622,millville,US,2/25/2022 4:16,39.4021,-75.0393,33.91,91,100,9.22,mist,0,0
623,lompoc,US,2/25/2022 4:18,34.6391,-120.4579,47.52,75,0,21,clear sky,0,0
624,wuan,CN,2/25/2022 4:20,31.6836,112.0044,55.06,48,0,8.41,clear sky,0,0
625,avera,US,2/25/2022 4:20,33.194,-82.5271,67.71,76,0,6.49,clear sky,0,0
626,sorland,NO,2/25/2022 4:20,67.667,12.6934,35.47,64,83,26.24,broken clouds,0,0
627,lewiston,US,2/25/2022 4:20,44.1003,-70.2148,23.32,56,0,4.16,clear sky,0,0
628,yamada,JP,2/25/2022 4:20,39.4667,141.95,41.68,51,44,15.3,scattered clouds,0,0
629,xingcheng,CN,2/25/2022 4:20,40.6167,120.7167,44.89,40,0,13.15,clear sky,0,0
630,kungurtug,RU,2/25/2022 4:20,50.5994,97.5228,13.17,78,34,1.59,scattered clouds,0,0
631,ambovombe,MG,2/25/2022 4:20,-25.1667,46.0833,76.96,84,100,9.73,overcast clouds,0,0
632,esperance,AU,2/25/2022 4:20,-33.8667,121.9,82.49,39,100,15.21,overcast clouds,0,0
633,aden,YE,2/25/2022 4:20,12.7794,45.0367,76.64,68,5,15.64,clear sky,0,0
634,tailai,CN,2/25/2022 4:20,46.3833,123.4,26.62,68,73,7.4,broken clouds,0,0
635,mocuba,MZ,2/25/2022 4:20,-16.8392,36.9856,71.02,98,88,2.84,overcast clouds,0,0
636,moindou,NC,2/25/2022 4:20,-21.6924,165.677,84.15,71,95,9.82,light rain,0,0
637,lata,PT,2/25/2022 4:20,40.1629,-8.3327,54.81,56,100,7.09,overcast clouds,0,0
638,sterling,US,2/25/2022 4:20,39.0062,-77.4286,34.32,95,100,7,mist,0,0
639,sungaipenuh,ID,2/25/2022 4:20,-2.0833,101.3833,81.48,41,65,3.4,broken clouds,0,0
640,buckeye,US,2/25/2022 4:20,33.3703,-112.5838,52.68,58,2,0,clear sky,0,0
641,port hardy,CA,2/25/2022 4:20,50.6996,-127.4199,42.76,100,20,2.3,few clouds,0,0
642,sitka,US,2/25/2022 4:20,57.0531,-135.33,39.09,81,100,3.44,overcast clouds,0,0
643,karrapur,IN,2/25/2022 4:17,23.95,78.85,74.1,38,0,7.9,clear sky,0,0
644,nyurba,RU,2/25/2022 4:20,63.2842,118.3319,-2.43,89,97,8.68,overcast clouds,0,0
645,manggar,ID,2/25/2022 4:20,-2.8833,108.2667,85.32,64,95,4.14,overcast clouds,0,0
646,jijiga,ET,2/25/2022 4:20,9.35,42.8,62.73,72,99,5.1,overcast clouds,0,0
647,laguna,US,2/25/2022 4:20,38.421,-121.4238,50.5,50,0,0,clear sky,0,0
648,imeni poliny osipenko,RU,2/25/2022 4:20,52.4201,136.4853,12.11,85,48,6.91,scattered clouds,0,0
649,bagotville,AU,2/25/2022 4:20,-28.9833,153.4167,77.02,86,100,12.03,light rain,0,0
650,surin,TH,2/25/2022 4:20,14.8818,103.4936,78.24,71,63,13.82,broken clouds,0,0
651,sawakin,SD,2/25/2022 4:20,19.1059,37.3321,75.83,77,59,18.84,broken clouds,0,0
652,omboue,GA,2/25/2022 4:20,-1.5746,9.2618,77.95,86,71,0.43,broken clouds,0,0
653,kochinda,IN,2/25/2022 4:20,21.7333,84.35,76.96,38,29,3.56,scattered clouds,0,0
654,loanda,AO,2/25/2022 4:20,-8.8368,13.2343,78.8,89,75,9.22,broken clouds,0,0
655,waddan,LY,2/25/2022 4:20,29.1614,16.139,46.47,63,1,3.29,clear sky,0,0
656,ampanihy,MG,2/25/2022 4:20,-24.7,44.75,74.17,87,100,10.45,overcast clouds,0,0
657,saint simons,US,2/25/2022 4:20,31.1352,-81.3901,68.07,93,0,6.91,clear sky,0,0
658,abbeville,FR,2/25/2022 4:20,50.1,1.8333,46.36,79,21,14.34,few clouds,0,0
659,port-gentil,GA,2/25/2022 4:20,-0.7193,8.7815,81.37,79,83,4.52,broken clouds,0,0
660,anuradhapura,LK,2/25/2022 4:20,8.3565,80.4173,82.38,59,4,9.57,clear sky,0,0
661,burns lake,CA,2/25/2022 4:18,54.2331,-125.7533,6.22,96,18,1.07,few clouds,0,0
662,somerville,US,2/25/2022 4:19,42.3876,-71.0995,30.97,50,100,6.91,overcast clouds,0,0
663,evanston,US,2/25/2022 4:19,42.0411,-87.6901,27.05,90,100,9.22,mist,0,0
664,bacolod,PH,2/25/2022 4:20,10.6667,122.95,86.25,57,72,18.37,broken clouds,0,0
665,xai-xai,MZ,2/25/2022 4:20,-25.0519,33.6442,74.66,85,16,9.33,light rain,0,0
666,minas,UY,2/25/2022 4:20,-34.3759,-55.2377,70.27,94,100,3.53,overcast clouds,0,0
667,san joaquin,US,2/25/2022 4:20,37.9333,-121.3011,49.12,41,0,6.91,clear sky,0,0
668,kristiinankaupunki,FI,2/25/2022 4:20,62.2743,21.376,32.18,98,100,7.74,overcast clouds,0,0
669,yeppoon,AU,2/25/2022 4:20,-23.1333,150.7333,94.78,44,0,1.21,clear sky,0,0
670,marsabit,KE,2/25/2022 4:20,2.3284,37.9899,65.1,79,98,12.62,overcast clouds,0,0
671,ahtopol,BG,2/25/2022 4:20,42.1,27.95,41.47,77,87,13.67,overcast clouds,0,0
672,acapulco,MX,2/25/2022 4:20,16.8634,-99.8901,78.62,83,0,3.44,clear sky,0,0
673,porbandar,IN,2/25/2022 4:20,21.6422,69.6093,75.04,51,0,5.66,clear sky,0,0
674,el salto,MX,2/25/2022 4:20,20.3333,-104.5,57.78,68,0,1.21,clear sky,0,0
675,kushima,JP,2/25/2022 4:20,31.4583,131.2333,54.91,34,0,7.72,clear sky,0,0
676,sinnamary,GF,2/25/2022 4:20,5.3833,-52.95,76.96,90,99,9.31,overcast clouds,0,0
677,cururupu,BR,2/25/2022 4:20,-1.8283,-44.8683,74.77,97,52,2.68,broken clouds,0,0
678,sept-iles,CA,2/25/2022 4:19,50.2001,-66.3821,-1.68,55,0,6.91,clear sky,0,0
679,touros,BR,2/25/2022 4:20,-5.1989,-35.4608,79.7,71,8,14.12,clear sky,0,0
680,morgan city,US,2/25/2022 4:20,29.6994,-91.2068,72.03,100,100,9.22,overcast clouds,0,0
681,kutum,SD,2/25/2022 4:20,14.2,24.6667,53.19,21,17,5.44,few clouds,0,0
682,totma,RU,2/25/2022 4:20,59.9747,42.7642,22.08,90,100,11.27,overcast clouds,0,0
683,ocos,GT,2/25/2022 4:20,14.5094,-92.1933,80.31,71,7,6.87,clear sky,0,0
684,slave lake,CA,2/25/2022 4:18,55.2834,-114.769,6.78,92,0,2.3,clear sky,0,0
685,songjianghe,CN,2/25/2022 4:20,42.1859,127.479,30.69,55,0,10.11,clear sky,0,0
686,iquitos,PE,2/25/2022 4:20,-3.7481,-73.2472,75.24,100,100,3.44,light intensity drizzle,0,0
687,chingirlau,KZ,2/25/2022 4:20,51.095,54.0814,25.88,98,100,0.83,overcast clouds,0,0
688,kedougou,SN,2/25/2022 4:20,12.5579,-12.1743,79.39,31,2,5.26,clear sky,0,0
689,najran,SA,2/25/2022 4:20,17.4924,44.1277,57.85,24,30,2.08,scattered clouds,0,0
690,oktyabrskoye,RU,2/25/2022 4:20,43.0645,44.7417,30.34,100,83,2.24,fog,0,0
691,stokmarknes,NO,2/25/2022 4:20,68.5646,14.9108,32.49,73,100,25.88,light snow,0,0
692,redwater,US,2/25/2022 4:20,33.3582,-94.2544,37.69,89,80,10.33,broken clouds,0,0
693,viru,PE,2/25/2022 4:17,-8.4167,-78.75,73.47,77,41,2.98,scattered clouds,0,0
694,boyolangu,ID,2/25/2022 4:20,-8.1181,111.8935,85.96,61,100,1.7,overcast clouds,0,0
695,barcelona,ES,2/25/2022 4:20,41.3888,2.159,53.87,86,20,10.36,few clouds,0,0
696,yabrud,SY,2/25/2022 4:20,33.9674,36.6574,37.72,82,35,14.7,scattered clouds,0,0
697,agidel,RU,2/25/2022 4:20,55.9077,53.9355,12.25,98,81,3.58,broken clouds,0,0
698,sinazongwe,ZM,2/25/2022 4:20,-17.2614,27.4618,70.39,79,2,1.66,light rain,0,0
699,mabaruma,GY,2/25/2022 4:20,8.2,-59.7833,71.96,99,100,3.09,overcast clouds,0,0
700,meadow lake,US,2/25/2022 4:18,34.8014,-106.5436,35.11,43,0,5.46,clear sky,0,0
701,trairi,BR,2/25/2022 4:20,-3.2778,-39.2689,79.02,83,100,8.99,overcast clouds,0,0
702,hornepayne,CA,2/25/2022 4:20,49.2138,-84.7705,-10.23,99,64,1.63,broken clouds,0,0
703,namibe,AO,2/25/2022 4:20,-15.1961,12.1522,75.58,83,3,1.95,clear sky,0,0
704,jalu,LY,2/25/2022 4:20,29.0331,21.5482,53.19,63,8,9.08,clear sky,0,0
705,sabha,LY,2/25/2022 4:20,27.0377,14.4283,48.4,48,8,6.42,clear sky,0,0
706,waipawa,NZ,2/25/2022 4:20,-41.4122,175.5153,64.29,67,55,8.9,broken clouds,0,0
707,kalengwa,ZM,2/25/2022 4:20,-13.4659,25.0027,61.68,94,95,1.41,overcast clouds,0,0
708,ganzhou,CN,2/25/2022 4:20,28.8184,115.4327,52.9,60,7,4.45,clear sky,0,0
709,ayan,RU,2/25/2022 4:20,56.45,138.1667,23.74,56,1,18.57,clear sky,0,0
710,bulolo,PG,2/25/2022 4:21,-7.2,146.65,82.27,67,86,5.66,overcast clouds,0,0
711,nokaneng,BW,2/25/2022 4:21,-19.6667,22.2667,69.1,53,31,3.91,scattered clouds,0,0
712,guadalupe y calvo,MX,2/25/2022 4:21,26.1,-106.9667,42.17,35,1,4.92,clear sky,0,0
713,lengshuijiang,CN,2/25/2022 4:21,27.6881,111.4294,52.5,61,10,0.69,clear sky,0,0
714,nueva loja,EC,2/25/2022 4:21,0.0847,-76.8828,71.53,98,59,0.4,broken clouds,0,0
715,puerto narino,CO,2/25/2022 4:21,-3.7703,-70.3831,78.75,97,79,1.05,broken clouds,0,0
716,basco,PH,2/25/2022 4:21,20.4487,121.9702,72.75,75,100,23.24,overcast clouds,0,0
717,lamu,KE,2/25/2022 4:21,-2.2717,40.902,79.02,87,88,8.7,overcast clouds,0,0
718,pinas,EC,2/25/2022 4:21,-3.6667,-79.65,65.26,99,100,0.72,light rain,0,0
719,northam,GB,2/25/2022 4:21,51.0333,-4.2167,44.38,76,4,21.05,clear sky,0,0
